[
  {
    "name": "Desarrollo 1",
    "city": "Ciudad de México",
    "region": "Centro",
    "latitude": 19.4326,
    "longitude": -99.1332,
    "total_leads": 8475,
    "total_sales": 6760,
    "total_closings": 6812,
    "conversion_rate": 80.38,
    "total_investment": 6259959.0
  },
  {
    "name": "Desarrollo 2",
    "city": "Toluca",
    "region": "Centro",
    "latitude": 19.2826,
    "longitude": -99.6557,
    "total_leads": 9728,
    "total_sales": 7870,
    "total_closings": 7694,
    "conversion_rate": 79.09,
    "total_investment": 6262945.0
  },
  {
    "name": "Desarrollo 3",
    "city": "Puebla",
    "region": "Centro",
    "latitude": 19.0414,
    "longitude": -98.2063,
    "total_leads": 8548,
    "total_sales": 6851,
    "total_closings": 6862,
    "conversion_rate": 80.28,
    "total_investment": 6220139.0
  },
  {
    "name": "Desarrollo 4",
    "city": "Monterrey",
    "region": "Norte",
    "latitude": 25.6866,
    "longitude": -100.3161,
    "total_leads": 9725,
    "total_sales": 7763,
    "total_closings": 7798,
    "conversion_rate": 80.19,
    "total_investment": 6248548.0
  },
  {
    "name": "Desarrollo 5",
    "city": "Monterrey",
    "region": "Norte",
    "latitude": 25.6866,
    "longitude": -100.3161,
    "total_leads": 8431,
    "total_sales": 6793,
    "total_closings": 6779,
    "conversion_rate": 80.41,
    "total_investment": 6329336.0
  },
  {
    "name": "Desarrollo 6",
    "city": "Chihuahua",
    "region": "Norte",
    "latitude": 28.6353,
    "longitude": -106.0889,
    "total_leads": 9564,
    "total_sales": 7639,
    "total_closings": 7627,
    "conversion_rate": 79.75,
    "total_investment": 6328903.0
  },
  {
    "name": "Desarrollo 7",
    "city": "Chihuahua",
    "region": "Norte",
    "latitude": 28.6353,
    "longitude": -106.0889,
    "total_leads": 8619,
    "total_sales": 6944,
    "total_closings": 6887,
    "conversion_rate": 79.9,
    "total_investment": 6503560.0
  },
  {
    "name": "Desarrollo 8",
    "city": "Torreón",
    "region": "Norte",
    "latitude": 25.5428,
    "longitude": -103.4067,
    "total_leads": 9803,
    "total_sales": 7829,
    "total_closings": 7887,
    "conversion_rate": 80.45,
    "total_investment": 6340168.0
  },
  {
    "name": "Desarrollo 9",
    "city": "Torreón",
    "region": "Norte",
    "latitude": 25.5428,
    "longitude": -103.4067,
    "total_leads": 8472,
    "total_sales": 6753,
    "total_closings": 6827,
    "conversion_rate": 80.58,
    "total_investment": 6254639.0
  },
  {
    "name": "Desarrollo 10",
    "city": "León",
    "region": "Norte",
    "latitude": 21.125,
    "longitude": -101.686,
    "total_leads": 9623,
    "total_sales": 7691,
    "total_closings": 7774,
    "conversion_rate": 80.79,
    "total_investment": 6279514.0
  },
  {
    "name": "Desarrollo 11",
    "city": "Oaxaca",
    "region": "Sur",
    "latitude": 17.0732,
    "longitude": -96.7266,
    "total_leads": 8594,
    "total_sales": 6895,
    "total_closings": 6886,
    "conversion_rate": 80.13,
    "total_investment": 3132855.0
  },
  {
    "name": "Desarrollo 12",
    "city": "Mérida",
    "region": "Sur",
    "latitude": 20.9674,
    "longitude": -89.5926,
    "total_leads": 9708,
    "total_sales": 7821,
    "total_closings": 7742,
    "conversion_rate": 79.75,
    "total_investment": 3230858.0
  },
  {
    "name": "Desarrollo 13",
    "city": "Villahermosa",
    "region": "Sur",
    "latitude": 17.9892,
    "longitude": -92.9475,
    "total_leads": 8605,
    "total_sales": 6907,
    "total_closings": 6914,
    "conversion_rate": 80.35,
    "total_investment": 3204723.0
  },
  {
    "name": "Desarrollo 14",
    "city": "Querétaro",
    "region": "Centro",
    "latitude": 20.5888,
    "longitude": -100.3899,
    "total_leads": 9786,
    "total_sales": 7823,
    "total_closings": 7810,
    "conversion_rate": 79.81,
    "total_investment": 3118833.0
  },
  {
    "name": "Desarrollo 15",
    "city": "Aguascalientes",
    "region": "Norte",
    "latitude": 21.8818,
    "longitude": -102.2916,
    "total_leads": 8750,
    "total_sales": 7030,
    "total_closings": 7010,
    "conversion_rate": 80.11,
    "total_investment": 3101803.0
  }
]